,City,Lat,Lng,Max Temp,Humidity,Cloudiness,Wind Speed,Country,Date
0,fortuna,40.5982,-124.1573,62.42,69.0,75.0,3.0,US,1635531231.0
1,santa cruz cabralia,-16.2781,-39.0247,80.83,65.0,40.0,9.22,BR,1635531137.0
2,jeremoabo,-10.075,-38.4808,79.61,63.0,87.0,9.17,BR,1635531256.0
3,zakamensk,50.3741,103.2863,27.84,89.0,15.0,2.26,RU,1635531257.0
5,avarua,-21.2078,-159.775,75.25,69.0,12.0,8.05,CK,1635531202.0
6,barrow,71.2906,-156.7887,-5.78,77.0,1.0,10.36,US,1635531206.0
7,east london,-33.0153,27.9116,65.39,83.0,80.0,15.88,ZA,1635531181.0
8,hermanus,-34.4187,19.2345,62.91,88.0,69.0,8.46,ZA,1635531195.0
9,chokurdakh,70.6333,147.9167,-15.92,98.0,99.0,3.38,RU,1635531198.0
10,wellington,-41.2866,174.7756,58.77,93.0,90.0,1.14,NZ,1635531257.0
12,rikitea,-23.1203,-134.9692,75.4,76.0,100.0,18.66,PF,1635531162.0
13,burgersdorp,-30.9977,26.3286,61.12,31.0,27.0,11.5,ZA,1635531258.0
14,verkhoyansk,67.5447,133.385,7.99,95.0,100.0,2.98,RU,1635531258.0
15,vila velha,-20.3297,-40.2925,80.55,69.0,75.0,11.5,BR,1635531177.0
16,atuona,-9.8,-139.0333,77.94,69.0,75.0,12.35,PF,1635531162.0
17,port hardy,50.6996,-127.4199,46.27,73.0,14.0,18.14,CA,1635531259.0
18,pevek,69.7008,170.3133,-1.93,96.0,98.0,2.64,RU,1635531200.0
20,dikson,73.5069,80.5464,6.66,86.0,100.0,15.75,RU,1635531211.0
21,cidreira,-30.1811,-50.2056,71.42,77.0,100.0,19.77,BR,1635531192.0
22,havoysund,70.9963,24.6622,40.08,67.0,100.0,31.88,NO,1635531260.0
24,mataura,-46.1927,168.8643,48.04,99.0,85.0,3.33,NZ,1635530886.0
25,torbay,47.6666,-52.7314,41.4,92.0,100.0,18.01,CA,1635531183.0
26,alice springs,-23.7,133.8833,62.15,34.0,21.0,6.91,AU,1635531260.0
27,mar del plata,-38.0023,-57.5575,69.82,92.0,0.0,18.01,AR,1635530943.0
28,puerto colombia,10.9878,-74.9547,80.69,86.0,100.0,11.14,CO,1635531058.0
29,neepawa,50.2289,-99.4664,46.81,40.0,88.0,13.56,CA,1635531261.0
30,tuktoyaktuk,69.4541,-133.0374,21.31,93.0,100.0,4.47,CA,1635530901.0
31,goure,13.9835,10.2704,90.01,10.0,98.0,9.44,NE,1635531261.0
32,castro,-24.7911,-50.0119,70.52,71.0,97.0,6.33,BR,1635531186.0
33,vila,42.0304,-8.1588,48.33,93.0,100.0,5.19,PT,1635531262.0
34,georgetown,5.4112,100.3354,82.33,89.0,20.0,2.3,MY,1635531080.0
35,new norfolk,-42.7826,147.0587,44.1,71.0,39.0,1.99,AU,1635531259.0
36,coquimbo,-29.9533,-71.3436,62.33,67.0,40.0,14.97,CL,1635531230.0
37,sola,-13.8833,167.55,81.32,74.0,63.0,15.39,VU,1635531262.0
38,qaanaaq,77.484,-69.3632,12.74,69.0,74.0,7.85,GL,1635531170.0
39,cape town,-33.9258,18.4232,66.09,70.0,58.0,1.99,ZA,1635531092.0
40,dimovo,43.7417,22.7269,53.6,64.0,0.0,5.48,BG,1635531263.0
41,twin falls,42.3505,-114.6445,62.94,45.0,1.0,17.27,US,1635531263.0
42,mahebourg,-20.4081,57.7,74.25,77.0,73.0,6.8,MU,1635531222.0
43,upernavik,72.7868,-56.1549,19.24,60.0,20.0,6.44,GL,1635531223.0
44,hithadhoo,-0.6,73.0833,83.77,72.0,68.0,13.24,MV,1635531167.0
45,busselton,-33.65,115.3333,46.04,82.0,7.0,8.01,AU,1635531185.0
46,punta arenas,-53.15,-70.9167,50.02,53.0,75.0,27.63,CL,1635531264.0
47,flinders,-34.5833,150.8552,60.8,70.0,10.0,10.07,AU,1635531264.0
48,husavik,66.0449,-17.3389,40.55,99.0,100.0,3.33,IS,1635531258.0
49,bolitoc,15.7395,119.8769,77.68,78.0,6.0,5.41,PH,1635531264.0
50,saldanha,-33.0117,17.9442,62.82,89.0,0.0,7.61,ZA,1635531209.0
51,nikolskoye,59.7035,30.7861,53.87,85.0,45.0,8.97,RU,1635531197.0
52,kavaratti,10.5669,72.642,82.33,71.0,99.0,3.27,IN,1635531166.0
54,thompson,55.7435,-97.8558,42.24,72.0,74.0,7.96,CA,1635531211.0
55,pontianak,-0.0333,109.3333,76.98,94.0,90.0,3.44,ID,1635531265.0
57,bredasdorp,-34.5322,20.0403,61.29,84.0,54.0,11.03,ZA,1635531164.0
58,leningradskiy,69.3833,178.4167,-12.03,94.0,23.0,5.35,RU,1635531229.0
59,hilo,19.7297,-155.09,76.24,69.0,1.0,5.75,US,1635531161.0
61,talnakh,69.4865,88.3972,14.25,95.0,100.0,8.63,RU,1635531227.0
62,vao,-22.6667,167.4833,70.34,73.0,4.0,12.44,NC,1635531266.0
63,kapaa,22.0752,-159.319,76.98,96.0,90.0,6.91,US,1635530897.0
64,rawson,-43.3002,-65.1023,73.94,27.0,99.0,10.47,AR,1635531049.0
65,sao joao da barra,-21.6403,-41.0511,73.49,92.0,100.0,11.5,BR,1635531267.0
66,cantagalo,-21.9811,-42.3681,66.61,91.0,100.0,2.17,BR,1635531267.0
67,gamba,-2.65,10.0,76.95,89.0,100.0,4.81,GA,1635531268.0
69,vaini,-21.2,-175.2,71.76,94.0,75.0,4.61,TO,1635530880.0
70,ponta do sol,32.6667,-17.1,77.0,69.0,98.0,9.78,PT,1635531227.0
71,egvekinot,66.3167,-179.1667,-1.35,96.0,98.0,1.5,RU,1635531269.0
72,emerald,-23.5333,148.1667,72.99,50.0,92.0,9.35,AU,1635531269.0
73,qaqortoq,60.7167,-46.0333,34.3,80.0,98.0,1.3,GL,1635531269.0
74,vestmannaeyjar,63.4427,-20.2734,47.39,87.0,75.0,23.02,IS,1635531255.0
75,bataipora,-22.2953,-53.2711,90.45,44.0,18.0,5.7,BR,1635531245.0
76,emmett,43.8735,-116.4993,65.98,47.0,97.0,12.53,US,1635531270.0
77,hammerfest,70.6634,23.6821,40.73,75.0,75.0,25.32,NO,1635531188.0
78,kodiak,57.79,-152.4072,38.86,67.0,100.0,20.11,US,1635531166.0
79,carnarvon,-24.8667,113.6333,64.47,72.0,0.0,17.27,AU,1635531189.0
80,bozeman,45.6796,-111.0386,62.02,42.0,20.0,4.0,US,1635531092.0
81,mount isa,-20.7333,139.5,73.17,88.0,89.0,6.91,AU,1635530922.0
82,tasiilaq,65.6145,-37.6368,26.76,77.0,72.0,4.92,GL,1635531190.0
83,kununurra,-15.7667,128.7333,82.38,74.0,23.0,5.75,AU,1635531270.0
84,hobart,-42.8794,147.3294,44.46,69.0,90.0,1.01,AU,1635531189.0
85,lebu,-37.6167,-73.65,58.39,69.0,85.0,17.56,CL,1635531163.0
86,albany,42.6001,-73.9662,56.39,67.0,22.0,3.0,US,1635531073.0
88,lasa,46.6166,10.7002,50.74,71.0,78.0,4.38,IT,1635531271.0
89,tazovskiy,67.4667,78.7,27.91,97.0,100.0,11.63,RU,1635531272.0
90,butaritari,3.0707,172.7902,83.05,70.0,2.0,15.88,KI,1635531199.0
91,makakilo city,21.3469,-158.0858,78.28,77.0,40.0,4.61,US,1635531272.0
92,vanimo,-2.6741,141.3028,77.25,90.0,69.0,2.62,PG,1635531272.0
94,fatsa,41.0278,37.5014,55.2,78.0,90.0,2.73,TR,1635531273.0
96,akhmim,26.5622,31.745,82.06,24.0,6.0,7.94,EG,1635531257.0
97,cherskiy,68.75,161.3,-18.17,97.0,92.0,0.09,RU,1635531242.0
98,arraial do cabo,-22.9661,-42.0278,69.66,94.0,90.0,11.5,BR,1635531056.0
99,manono,-7.3,27.4167,73.96,79.0,22.0,4.03,CD,1635531273.0
100,adeje,28.1227,-16.726,71.51,58.0,20.0,14.97,ES,1635531274.0
101,port alfred,-33.5906,26.891,64.47,77.0,64.0,17.09,ZA,1635530878.0
102,avera,33.194,-82.5271,65.71,59.0,87.0,14.14,US,1635531217.0
103,mayo,38.8876,-76.5119,63.34,94.0,90.0,18.99,US,1635531210.0
104,cutler ridge,25.5783,-80.3377,86.0,63.0,90.0,1.99,US,1635531274.0
105,ushuaia,-54.8,-68.3,51.42,53.0,40.0,29.93,AR,1635530870.0
106,kruisfontein,-34.0033,24.7314,58.89,76.0,47.0,11.56,ZA,1635531208.0
107,kahului,20.8947,-156.47,78.84,79.0,20.0,5.75,US,1635531275.0
108,luanda,-8.8368,13.2343,77.0,88.0,40.0,6.91,AO,1635531271.0
109,abu samrah,35.3029,37.1841,67.73,53.0,96.0,6.24,SY,1635531275.0
110,taltal,-25.4,-70.4833,67.35,59.0,11.0,5.23,CL,1635531276.0
111,riverton,40.5219,-111.9391,65.8,54.0,1.0,1.01,US,1635531006.0
112,shieli,44.1667,66.75,43.81,58.0,2.0,5.3,KZ,1635531276.0
113,villa carlos paz,-31.4241,-64.4978,90.68,29.0,100.0,11.01,AR,1635531277.0
115,faya,18.3851,42.4509,63.12,30.0,98.0,11.39,SA,1635531163.0
117,saskylakh,71.9167,114.0833,-13.02,97.0,76.0,7.83,RU,1635531225.0
118,narsaq,60.9167,-46.05,34.02,75.0,96.0,2.17,GL,1635531181.0
119,yagodnoye,62.55,149.6667,-4.7,89.0,17.0,6.2,RU,1635531277.0
120,ribeira grande,38.5167,-28.7,70.2,94.0,75.0,14.97,PT,1635531180.0
121,chumikan,54.7183,135.315,31.77,94.0,99.0,10.07,RU,1635531278.0
122,khetia,21.6667,74.5833,72.59,43.0,48.0,4.09,IN,1635531278.0
123,evensk,61.95,159.2333,9.66,90.0,79.0,7.27,RU,1635531279.0
124,puerto ayora,-0.7393,-90.3518,80.56,82.0,90.0,10.56,EC,1635530906.0
126,peace river,56.2501,-117.286,37.44,50.0,15.0,5.95,CA,1635531279.0
127,touros,-5.1989,-35.4608,86.9,62.0,77.0,18.97,BR,1635531259.0
129,aklavik,68.2191,-135.0107,17.51,95.0,100.0,1.92,CA,1635531230.0
130,roatan,16.3244,-86.5366,81.68,74.0,75.0,11.5,HN,1635531280.0
131,vardo,70.3705,31.1107,37.38,81.0,0.0,16.11,NO,1635531222.0
132,souillac,-20.5167,57.5167,74.35,79.0,57.0,8.14,MU,1635531233.0
134,xingyi,24.1877,102.817,57.16,99.0,89.0,2.64,CN,1635531280.0
135,port elizabeth,-33.918,25.5701,61.11,80.0,32.0,10.94,ZA,1635531174.0
136,norman wells,65.282,-126.8329,23.9,94.0,100.0,5.86,CA,1635531178.0
137,tuatapere,-46.1333,167.6833,49.78,96.0,93.0,4.83,NZ,1635531215.0
138,taoudenni,22.6783,-3.9836,88.02,21.0,64.0,3.83,ML,1635531281.0
139,yaan,7.3833,8.5667,83.14,55.0,96.0,1.48,NG,1635531281.0
140,noumea,-22.2763,166.4572,62.58,82.0,3.0,7.29,NC,1635531281.0
141,havelock,34.8791,-76.9013,75.16,64.0,90.0,21.99,US,1635531239.0
142,novyy starodub,48.5158,33.1733,48.42,64.0,3.0,5.55,UA,1635531282.0
143,kaitangata,-46.2817,169.8464,49.86,98.0,70.0,7.87,NZ,1635531244.0
144,berlevag,70.8578,29.0864,37.4,81.0,20.0,20.71,NO,1635531282.0
145,davila,18.4726,120.5763,77.72,79.0,10.0,11.59,PH,1635531283.0
146,cap malheureux,-19.9842,57.6142,74.46,83.0,49.0,5.01,MU,1635531283.0
147,manikling,6.8791,126.0606,77.32,87.0,19.0,4.81,PH,1635531284.0
148,xai-xai,-25.0519,33.6442,70.81,61.0,6.0,16.28,MZ,1635531284.0
149,singaraja,-8.112,115.0882,79.97,82.0,100.0,3.78,ID,1635531284.0
150,cabo san lucas,22.8909,-109.9124,87.62,62.0,1.0,1.01,MX,1635531121.0
151,ola,59.5833,151.2833,25.72,89.0,89.0,3.49,RU,1635531285.0
152,khatanga,71.9667,102.5,-0.36,86.0,99.0,10.25,RU,1635531203.0
153,concarneau,47.875,-3.9225,57.81,74.0,75.0,11.56,FR,1635531285.0
154,aykhal,66.0,111.5,-11.11,100.0,47.0,6.73,RU,1635531286.0
155,salinopolis,-0.6136,-47.3561,81.64,79.0,90.0,4.74,BR,1635531286.0
156,mariel,22.9875,-82.7536,84.34,61.0,93.0,15.79,CU,1635531287.0
157,kutum,14.2,24.6667,76.57,14.0,23.0,9.35,SD,1635531287.0
158,zhezkazgan,47.8043,67.7144,36.46,40.0,99.0,8.55,KZ,1635531287.0
159,elat,29.5581,34.9482,71.44,35.0,0.0,11.5,IL,1635531288.0
160,faanui,-16.4833,-151.75,78.89,75.0,98.0,16.8,PF,1635531192.0
161,severo-kurilsk,50.6789,156.125,43.18,97.0,100.0,4.25,RU,1635531256.0
162,mecca,21.4267,39.8261,82.99,56.0,0.0,5.41,SA,1635531039.0
163,hiriyur,13.9456,76.6192,73.04,90.0,100.0,5.1,IN,1635531288.0
164,yellowknife,62.456,-114.3525,33.42,99.0,75.0,1.99,CA,1635531058.0
165,vanavara,60.34,102.2797,27.19,73.0,100.0,9.24,RU,1635531289.0
166,itarema,-2.9248,-39.9167,85.51,57.0,91.0,16.46,BR,1635531229.0
167,provideniya,64.3833,-173.3,9.36,78.0,41.0,3.76,RU,1635531170.0
168,morondava,-20.2833,44.2833,76.23,64.0,76.0,13.8,MG,1635531289.0
169,walvis bay,-22.9575,14.5053,61.09,67.0,1.0,17.02,NA,1635531271.0
170,kodinar,20.7903,70.7031,77.67,39.0,100.0,10.98,IN,1635531290.0
171,hofn,64.2539,-15.2082,44.62,93.0,75.0,4.61,IS,1635531218.0
172,pyinmana,19.7333,96.2167,73.36,95.0,39.0,2.98,MM,1635531290.0
173,namibe,-15.1961,12.1522,67.12,83.0,84.0,8.61,AO,1635531291.0
175,jamestown,42.097,-79.2353,49.59,99.0,90.0,5.99,US,1635530966.0
176,aljezur,37.3191,-8.8033,67.1,90.0,100.0,14.34,PT,1635531291.0
177,dingle,10.9995,122.6711,76.05,91.0,91.0,7.16,PH,1635531292.0
178,catamarca,-28.4696,-65.7852,96.04,23.0,81.0,14.18,AR,1635530955.0
179,bluff,-46.6,168.3333,51.62,92.0,93.0,7.4,NZ,1635531166.0
180,tepotzotlan,19.7139,-99.2244,68.67,69.0,86.0,4.79,MX,1635531028.0
181,victoria,22.2855,114.1577,78.39,86.0,75.0,4.0,HK,1635531141.0
182,lexington,37.9887,-84.4777,61.95,76.0,90.0,1.01,US,1635531264.0
183,beloha,-25.1667,45.05,63.7,66.0,1.0,15.03,MG,1635531288.0
186,sitka,57.0531,-135.33,39.09,87.0,75.0,9.22,US,1635531222.0
187,korhogo,9.45,-5.6333,82.65,59.0,54.0,4.07,CI,1635531293.0
188,aron,24.3833,77.4167,65.08,48.0,4.0,4.88,IN,1635531294.0
189,ishigaki,24.3448,124.1572,74.62,72.0,79.0,7.9,JP,1635531294.0
190,ahmadpur east,29.1431,71.2598,76.35,19.0,0.0,4.97,PK,1635531294.0
191,san carlos de bariloche,-41.1456,-71.3082,71.44,30.0,20.0,26.46,AR,1635531280.0
192,saint-philippe,-21.3585,55.7679,71.19,81.0,74.0,5.99,RE,1635531192.0
193,tecoanapa,16.5167,-98.75,85.82,66.0,18.0,6.87,MX,1635531295.0
194,pascagoula,30.3658,-88.5561,65.03,57.0,90.0,10.36,US,1635531222.0
195,kaeo,-35.1,173.7833,52.32,95.0,82.0,4.43,NZ,1635531295.0
196,lagoa,39.05,-27.9833,68.99,90.0,89.0,22.68,PT,1635531188.0
197,bandarbeyla,9.4942,50.8122,78.71,80.0,1.0,17.13,SO,1635531208.0
198,arteaga,18.4667,-102.4167,77.4,58.0,2.0,3.27,MX,1635531296.0
199,muros,42.7762,-9.0603,59.23,93.0,100.0,13.76,ES,1635531189.0
200,kuito,-12.3833,16.9333,66.15,69.0,91.0,6.15,AO,1635531296.0
201,batagay,67.6333,134.6333,6.13,95.0,100.0,1.79,RU,1635531138.0
202,bonaventure,48.0457,-65.4926,50.34,56.0,0.0,2.21,CA,1635531297.0
205,baghdad,33.3406,44.4009,76.91,41.0,20.0,0.0,IQ,1635531297.0
206,adre,13.4667,22.2,81.28,18.0,28.0,6.17,TD,1635531212.0
207,marawi,7.9986,124.2928,65.64,94.0,72.0,1.86,PH,1635531168.0
208,belur,13.1667,75.8667,67.84,96.0,100.0,7.05,IN,1635531298.0
209,zhigansk,66.7697,123.3711,-5.78,100.0,95.0,2.86,RU,1635531028.0
210,turukhansk,65.8167,87.9833,29.52,97.0,100.0,15.88,RU,1635531298.0
211,ulaanbaatar,47.9077,106.8832,21.33,93.0,75.0,6.71,MN,1635531299.0
213,clyde river,70.4692,-68.5914,28.24,93.0,98.0,9.8,CA,1635531197.0
214,beian,63.6559,9.5683,55.0,93.0,0.0,13.8,NO,1635531299.0
215,krasnoturinsk,59.7666,60.2086,22.21,63.0,33.0,9.93,RU,1635531299.0
216,margate,51.3813,1.3862,55.31,74.0,99.0,4.0,GB,1635531225.0
217,shitanjing,39.2342,106.3439,43.41,36.0,12.0,4.05,CN,1635531300.0
218,sharya,58.3686,45.5144,34.41,92.0,100.0,10.65,RU,1635531300.0
219,port blair,11.6667,92.75,81.36,82.0,32.0,8.23,IN,1635531187.0
220,airai,-8.9266,125.4092,61.83,90.0,97.0,1.39,TL,1635530910.0
222,tsumeb,-19.2333,17.7167,72.95,54.0,65.0,10.4,NA,1635531301.0
223,college,64.8569,-147.8028,20.21,91.0,90.0,3.44,US,1635531301.0
224,rafaela,-31.2503,-61.4867,98.06,12.0,0.0,4.0,AR,1635531012.0
226,linxia,35.6003,103.2064,45.21,60.0,11.0,0.38,CN,1635531302.0
227,kosh-agach,50.0,88.6667,21.96,71.0,40.0,2.48,RU,1635531303.0
228,san jeronimo,-11.9472,-75.2829,61.23,50.0,99.0,7.52,PE,1635531304.0
229,ahipara,-35.1667,173.1667,58.59,95.0,71.0,4.92,NZ,1635531220.0
230,vostok,46.4856,135.8833,31.44,68.0,0.0,2.8,RU,1635531205.0
231,aleppo,36.25,37.5,65.86,47.0,52.0,7.92,SY,1635531305.0
232,pahrump,36.2083,-115.9839,77.31,35.0,0.0,1.01,US,1635531293.0
233,nalut,30.3333,10.85,69.93,35.0,0.0,7.07,LY,1635531297.0
234,pisco,-13.7,-76.2167,69.85,68.0,0.0,9.22,PE,1635531306.0
235,boa vista,2.8197,-60.6733,93.18,46.0,75.0,9.22,BR,1635531274.0
237,westport,41.1415,-73.3579,56.98,73.0,90.0,1.01,US,1635531304.0
239,bengkulu,-3.8004,102.2655,76.39,91.0,98.0,5.17,ID,1635531307.0
240,belyy,55.8402,32.9419,46.98,94.0,52.0,6.93,RU,1635531307.0
241,plettenberg bay,-34.0527,23.3716,60.67,81.0,13.0,7.38,ZA,1635531308.0
242,hambantota,6.1241,81.1185,79.16,85.0,87.0,4.83,LK,1635531298.0
243,shivrajpur,22.4167,73.65,70.5,41.0,53.0,6.71,IN,1635531309.0
244,savantvadi,15.9,73.8167,76.32,68.0,97.0,3.4,IN,1635531309.0
245,nanortalik,60.1432,-45.2371,35.1,82.0,97.0,1.92,GL,1635531261.0
247,roald,62.5833,6.1333,59.92,82.0,0.0,5.75,NO,1635531241.0
249,yanam,16.7333,82.2167,77.5,93.0,100.0,5.28,IN,1635531310.0
250,alugan,12.2188,125.4808,79.75,84.0,94.0,11.86,PH,1635531310.0
251,mount gambier,-37.8333,140.7667,41.36,78.0,7.0,4.56,AU,1635531265.0
252,chimala,-8.85,34.0167,78.82,45.0,64.0,10.36,TZ,1635531311.0
253,bambous virieux,-20.3428,57.7575,74.21,76.0,76.0,7.34,MU,1635531254.0
254,horizontina,-27.6258,-54.3078,75.7,78.0,26.0,10.78,BR,1635531277.0
256,kargasok,59.0556,80.8572,26.31,76.0,100.0,14.67,RU,1635531312.0
258,panormos,35.4182,24.6909,66.06,77.0,98.0,7.72,GR,1635531312.0
259,katowice,50.2584,19.0275,56.35,53.0,25.0,4.38,PL,1635531313.0
260,san cristobal,7.7669,-72.225,75.54,75.0,92.0,3.06,VE,1635531257.0
261,constitucion,-35.3333,-72.4167,66.96,58.0,69.0,17.85,CL,1635531272.0
262,cockburn town,21.4612,-71.1419,85.96,66.0,40.0,8.05,TC,1635531313.0
263,praya,14.9215,-23.5087,82.94,69.0,75.0,17.27,CV,1635531284.0
264,chunskiy,56.0815,99.6342,30.27,76.0,100.0,3.78,RU,1635531314.0
265,tilichiki,60.4667,166.1,28.47,87.0,99.0,14.99,RU,1635531314.0
266,krasnoborsk,61.5598,45.934,32.23,94.0,100.0,8.93,RU,1635531315.0
267,arusha,-3.3667,36.6833,69.28,62.0,84.0,7.83,TZ,1635531315.0
268,ambon,-3.6954,128.1814,80.35,78.0,100.0,3.83,ID,1635531316.0
269,jijiga,9.35,42.8,64.44,47.0,50.0,16.64,ET,1635531316.0
271,jacqueville,5.2052,-4.4146,82.31,78.0,100.0,10.6,CI,1635531316.0
272,tarauaca,-8.1614,-70.7656,92.73,40.0,52.0,2.55,BR,1635531317.0
273,salalah,17.0151,54.0924,84.29,61.0,0.0,8.05,OM,1635531317.0
274,brae,60.3964,-1.353,53.51,96.0,100.0,18.75,GB,1635531194.0
275,ugoofaaru,5.6667,73.0,81.77,70.0,34.0,9.04,MV,1635531318.0
276,zella-mehlis,50.65,10.65,47.71,76.0,82.0,4.74,DE,1635531318.0
277,angul,20.85,85.1,75.72,76.0,67.0,2.62,IN,1635531318.0
278,coihaique,-45.5752,-72.0662,57.81,66.0,90.0,6.91,CL,1635531196.0
279,san quintin,30.4833,-115.95,75.94,40.0,0.0,5.79,MX,1635531241.0
280,kismayo,-0.3582,42.5454,79.57,76.0,20.0,11.79,SO,1635531320.0
281,saravan,39.7196,45.6483,36.25,78.0,100.0,0.76,AM,1635531320.0
282,alofi,-19.0595,-169.9187,76.75,59.0,98.0,20.33,NU,1635531321.0
283,ixtapa,20.7,-105.2,86.23,66.0,1.0,0.0,MX,1635531206.0
284,bhadrachalam,17.6667,80.8833,75.45,89.0,100.0,2.42,IN,1635531321.0
286,matagami,49.7502,-77.6328,51.91,50.0,1.0,11.5,CA,1635531322.0
287,half moon bay,37.4636,-122.4286,74.62,81.0,40.0,3.44,US,1635531250.0
289,avon park,27.5959,-81.5062,82.81,57.0,63.0,16.64,US,1635531322.0
290,laguna,38.421,-121.4238,76.96,80.0,1.0,1.01,US,1635531323.0
291,isangel,-19.55,169.2667,74.61,87.0,89.0,6.2,VU,1635531258.0
292,deputatskiy,69.3,139.9,7.02,90.0,100.0,7.67,RU,1635531323.0
293,villa maria,-32.4075,-63.2402,93.81,28.0,1.0,9.95,AR,1635531323.0
294,lavrentiya,65.5833,-171.0,16.2,90.0,100.0,5.39,RU,1635531140.0
295,bisira,8.5196,-81.7115,69.3,76.0,89.0,2.95,PA,1635531324.0
296,turayf,31.6725,38.6637,74.01,22.0,61.0,9.75,SA,1635531324.0
297,fairbanks,64.8378,-147.7164,20.23,91.0,90.0,3.44,US,1635531210.0
298,chuy,-33.6971,-53.4616,73.98,60.0,3.0,15.05,UY,1635531202.0
299,belaya gora,68.5333,146.4167,0.3,98.0,100.0,2.62,RU,1635531262.0
301,aswan,24.0934,32.907,87.8,18.0,33.0,10.51,EG,1635531325.0
302,viedma,-40.8135,-62.9967,97.5,18.0,3.0,17.83,AR,1635531325.0
303,te anau,-45.4167,167.7167,46.83,92.0,88.0,2.46,NZ,1635531218.0
304,zhangjiakou,40.81,114.8794,46.63,62.0,14.0,0.51,CN,1635531326.0
305,bethel,41.3712,-73.414,54.18,74.0,90.0,4.0,US,1635531256.0
306,misratah,32.3754,15.0925,71.6,63.0,6.0,16.84,LY,1635531327.0
307,wattens,47.2722,11.5993,45.14,58.0,85.0,7.94,AT,1635531327.0
308,porto novo,6.4965,2.6036,80.71,79.0,93.0,6.69,BJ,1635531327.0
309,bathsheba,13.2167,-59.5167,82.98,67.0,15.0,12.88,BB,1635531264.0
310,assiniboia,49.6334,-105.9845,58.91,54.0,92.0,10.36,CA,1635531328.0
311,satipo,-11.2522,-74.6386,93.76,37.0,78.0,2.98,PE,1635531328.0
312,seoul,37.5683,126.9778,56.64,52.0,100.0,2.73,KR,1635531079.0
313,biak,-0.9131,122.8766,76.69,83.0,91.0,1.23,ID,1635531329.0
314,camacha,33.0833,-16.3333,73.53,73.0,20.0,14.97,PT,1635531329.0
315,meulaboh,4.1363,96.1285,77.29,87.0,97.0,3.18,ID,1635531329.0
316,waingapu,-9.6567,120.2641,80.91,80.0,100.0,4.14,ID,1635531164.0
317,canavieiras,-15.675,-38.9472,78.85,72.0,33.0,7.36,BR,1635531330.0
318,kudahuvadhoo,2.6708,72.8944,82.51,76.0,89.0,12.48,MV,1635531331.0
319,eyl,7.9803,49.8164,78.57,70.0,8.0,14.2,SO,1635531331.0
320,geraldton,-28.7667,114.6,52.21,87.0,0.0,8.05,AU,1635531227.0
321,hay river,60.8156,-115.7999,31.96,100.0,90.0,8.05,CA,1635531074.0
322,lata,40.1629,-8.3327,62.92,88.0,100.0,14.94,PT,1635531266.0
323,dasoguz,41.8363,59.9666,39.31,75.0,0.0,6.91,TM,1635531332.0
324,ust-omchug,61.15,149.6333,-3.59,100.0,91.0,1.92,RU,1635531070.0
325,ust-karsk,52.7011,118.8077,24.76,69.0,29.0,2.95,RU,1635531332.0
326,longyearbyen,78.2186,15.6401,26.44,59.0,20.0,14.97,SJ,1635531288.0
327,anloga,5.7947,0.8973,82.54,76.0,80.0,10.2,GH,1635531333.0
328,sembakung,3.8167,117.25,73.04,99.0,53.0,2.17,ID,1635531334.0
329,ormara,25.2088,64.6357,79.81,62.0,0.0,7.09,PK,1635531335.0
331,christchurch,-43.5333,172.6333,56.03,91.0,90.0,3.44,NZ,1635531088.0
332,lagunas,-5.2269,-75.6753,82.62,72.0,89.0,1.7,PE,1635531336.0
333,ayagoz,47.9714,80.4392,38.05,69.0,17.0,7.58,KZ,1635531336.0
334,atar,20.5169,-13.0499,87.78,26.0,85.0,4.92,MR,1635531284.0
335,wagar,16.1525,36.2032,88.75,31.0,3.0,17.49,SD,1635531336.0
336,sundargarh,22.1167,84.0333,74.68,72.0,82.0,1.16,IN,1635531337.0
337,shakawe,-18.3667,21.85,79.68,42.0,93.0,1.88,BW,1635531338.0
338,parry sound,45.3501,-80.033,54.88,71.0,65.0,10.4,CA,1635531339.0
339,isla mujeres,21.2311,-86.731,84.25,52.0,28.0,15.75,MX,1635531339.0
340,road town,18.4167,-64.6167,84.99,70.0,11.0,14.27,VG,1635531339.0
341,mutoko,-17.397,32.2268,68.88,40.0,23.0,10.65,ZW,1635531340.0
342,nicoya,10.1483,-85.452,85.55,75.0,78.0,2.44,CR,1635531340.0
343,waipawa,-41.4122,175.5153,54.23,95.0,93.0,3.6,NZ,1635531341.0
344,elko,41.0002,-115.5012,53.74,70.0,3.0,5.01,US,1635531341.0
345,abrau-dyurso,44.69,37.59,45.86,72.0,0.0,10.78,RU,1635531342.0
347,chihuahua,28.5,-106.0,68.83,18.0,0.0,8.12,MX,1635531342.0
348,dalvik,65.9702,-18.5286,42.73,99.0,100.0,1.59,IS,1635531342.0
349,slave lake,55.2834,-114.769,39.18,56.0,1.0,14.97,CA,1635531324.0
350,kungurtug,50.5994,97.5228,26.64,85.0,58.0,1.81,RU,1635531343.0
351,beisfjord,68.3751,17.5988,43.05,94.0,98.0,3.83,NO,1635531343.0
352,mauriti,-7.3892,-38.7744,97.0,21.0,32.0,10.92,BR,1635531343.0
353,tirunelveli,8.7333,77.7,79.3,82.0,91.0,3.11,IN,1635531344.0
354,padang,-0.9492,100.3543,78.57,86.0,100.0,3.78,ID,1635531179.0
355,okara,30.8081,73.4458,70.47,30.0,0.0,3.27,PK,1635531344.0
356,kualakapuas,-3.0091,114.3876,75.36,96.0,97.0,1.54,ID,1635531345.0
357,skegness,53.1436,0.3363,53.35,79.0,86.0,17.85,GB,1635531345.0
358,nemuro,43.3236,145.575,47.32,75.0,46.0,18.57,JP,1635531345.0
359,erzin,36.9559,36.2,63.12,47.0,1.0,6.02,TR,1635531346.0
360,ajdabiya,30.7554,20.2263,70.02,69.0,62.0,7.16,LY,1635531346.0
361,monte alegre,-2.0078,-54.0692,90.9,48.0,8.0,1.99,BR,1635531222.0
362,merrill,45.1805,-89.6835,55.17,88.0,90.0,11.5,US,1635531346.0
363,krasnokamensk,50.0979,118.0369,31.14,57.0,100.0,13.91,RU,1635531347.0
364,hasaki,35.7333,140.8333,48.6,57.0,11.0,9.19,JP,1635531308.0
365,deoranian,28.6333,79.4833,67.66,66.0,0.0,5.19,IN,1635531347.0
366,inhambane,-23.865,35.3833,71.58,68.0,20.0,6.91,MZ,1635531252.0
367,rosetta,31.4044,30.4164,73.8,71.0,100.0,8.75,EG,1635531347.0
368,puerto madryn,-42.7692,-65.0385,78.12,30.0,73.0,6.33,AR,1635531113.0
369,paris,48.8534,2.3488,56.17,95.0,75.0,1.01,FR,1635530961.0
370,tongren,27.7172,109.1853,54.9,95.0,22.0,1.43,CN,1635531348.0
371,svay rieng,11.0879,105.7993,77.65,89.0,100.0,3.71,KH,1635531348.0
372,dwarka,22.2394,68.9678,81.54,48.0,16.0,9.93,IN,1635531320.0
373,goundi,9.3627,17.366,79.5,59.0,65.0,4.54,TD,1635531349.0
374,haines junction,60.7522,-137.5108,29.66,79.0,67.0,3.96,CA,1635531254.0
375,saint-pierre,-21.3393,55.4781,71.28,72.0,75.0,6.91,RE,1635531251.0
376,barinitas,8.7622,-70.4111,79.84,76.0,91.0,4.74,VE,1635531349.0
377,cambrai,50.1667,3.4167,55.99,90.0,100.0,15.48,FR,1635531350.0
378,hualmay,-11.0964,-77.6139,69.4,71.0,97.0,11.99,PE,1635531269.0
379,gondar,12.6,37.4667,61.68,64.0,96.0,3.58,ET,1635531350.0
381,morant bay,17.8815,-76.4093,89.22,75.0,44.0,7.47,JM,1635531350.0
382,fenoarivo,-18.933,47.4354,60.87,82.0,75.0,11.5,MG,1635531351.0
383,kyzyl-suu,42.3414,78.0056,39.88,96.0,100.0,0.51,KG,1635531351.0
385,zagora,30.3484,-5.8365,74.8,23.0,26.0,8.1,MA,1635531352.0
386,dharchula,29.85,80.5333,55.04,43.0,0.0,7.34,IN,1635531352.0
387,vila franca do campo,37.7167,-25.4333,73.2,94.0,97.0,18.7,PT,1635531179.0
388,beni,0.5,29.4667,63.5,99.0,89.0,2.3,CD,1635531352.0
389,aripuana,-9.1667,-60.6333,91.27,46.0,97.0,0.72,BR,1635531313.0
390,necochea,-38.5473,-58.7368,91.04,31.0,99.0,15.17,AR,1635531353.0
391,calabozo,8.9242,-67.4293,87.67,59.0,83.0,3.65,VE,1635531135.0
392,svetlaya,46.5389,138.3297,43.0,63.0,0.0,3.36,RU,1635531353.0
393,junagarh,19.8667,82.9333,73.11,83.0,100.0,1.12,IN,1635531354.0
394,vestmanna,62.1564,-7.1664,45.52,100.0,75.0,8.05,FO,1635531308.0
395,mantua,45.1667,10.7833,57.7,80.0,94.0,3.53,IT,1635531234.0
396,tiksi,71.6872,128.8694,8.85,94.0,100.0,6.87,RU,1635531208.0
397,tommot,58.9564,126.2925,19.71,90.0,99.0,9.19,RU,1635531354.0
398,auki,-8.7676,160.7034,77.68,89.0,17.0,4.47,SB,1635531355.0
399,genhe,50.7833,121.5167,29.5,73.0,100.0,7.96,CN,1635531355.0
400,grootfontein,-19.5667,18.1167,71.17,56.0,63.0,3.44,NA,1635531356.0
401,elliot,-31.3333,27.85,57.2,84.0,72.0,1.68,ZA,1635531356.0
402,mogadishu,2.0371,45.3438,79.47,78.0,42.0,9.33,SO,1635531314.0
403,quatre cocos,-20.2078,57.7625,74.08,77.0,72.0,8.77,MU,1635531356.0
404,albania,41.0,20.0,57.11,53.0,0.0,6.2,AL,1635531357.0
405,bonoua,5.2741,-3.595,82.02,80.0,99.0,6.55,CI,1635531357.0
406,ryotsu,38.0833,138.4333,56.07,70.0,76.0,4.12,JP,1635531357.0
407,ulkan,57.243,107.3223,26.31,56.0,84.0,5.32,RU,1635531358.0
408,bambui,-20.0064,-45.9769,83.46,44.0,98.0,2.89,BR,1635531358.0
409,wamba,8.9333,8.6,79.18,53.0,100.0,1.43,NG,1635531359.0
410,garowe,8.4054,48.4845,74.3,64.0,0.0,16.31,SO,1635531359.0
411,formiga,-20.4644,-45.4264,77.14,58.0,99.0,1.05,BR,1635531360.0
412,galveston,29.3669,-94.9669,71.71,38.0,1.0,5.99,US,1635531360.0
413,luderitz,-26.6481,15.1594,61.68,81.0,0.0,13.31,NA,1635531263.0
415,sakakah,29.9697,40.2064,78.37,20.0,79.0,10.58,SA,1635531361.0
416,winnemucca,40.973,-117.7357,58.1,62.0,1.0,0.0,US,1635531362.0
418,aktash,50.3,87.7333,19.54,70.0,18.0,4.27,RU,1635531363.0
419,novoagansk,61.9449,76.6625,20.73,92.0,90.0,21.14,RU,1635531363.0
420,panaba,21.2833,-88.2667,84.65,43.0,34.0,15.37,MX,1635531364.0
421,rovnoye,50.7765,46.0509,44.24,72.0,15.0,2.73,RU,1635531364.0
422,ust-ishim,57.6935,71.1665,23.63,74.0,96.0,11.63,RU,1635531364.0
423,porto velho,-8.7619,-63.9039,91.45,46.0,0.0,3.44,BR,1635531365.0
425,pacific grove,36.6177,-121.9166,76.8,82.0,1.0,4.0,US,1635531365.0
426,hamilton,39.1834,-84.5333,59.88,96.0,90.0,1.99,US,1635530957.0
427,klaksvik,62.2266,-6.589,47.32,88.0,72.0,9.8,FO,1635531241.0
428,dawson creek,55.7666,-120.2362,35.24,48.0,1.0,12.66,CA,1635531365.0
429,sept-iles,50.2001,-66.3821,48.97,41.0,0.0,3.31,CA,1635531196.0
430,ray,23.6833,85.05,70.57,78.0,50.0,2.86,IN,1635531366.0
431,dali,25.7,100.1833,55.04,89.0,0.0,2.51,CN,1635531366.0
432,amapa,1.0,-52.0,89.11,48.0,88.0,2.04,BR,1635531367.0
433,mbulu,-3.85,35.5333,68.79,52.0,98.0,6.4,TZ,1635531367.0
434,guiyang,26.5833,106.7167,54.09,94.0,90.0,2.24,CN,1635531367.0
435,bambanglipuro,-7.95,110.2833,77.61,90.0,100.0,4.7,ID,1635531316.0
436,primo tapia,32.22,-116.9172,86.4,45.0,0.0,4.92,MX,1635531368.0
437,pangnirtung,66.1451,-65.7125,32.0,100.0,90.0,2.3,CA,1635531270.0
438,stephenville,32.2207,-98.2023,68.34,21.0,1.0,17.27,US,1635531330.0
439,borujerd,33.8973,48.7516,52.3,79.0,89.0,0.51,IR,1635531368.0
440,marzuq,14.4,46.4667,73.8,32.0,1.0,4.72,YE,1635531214.0
441,sisimiut,66.9395,-53.6735,32.36,99.0,100.0,6.69,GL,1635531351.0
442,tezu,27.9167,96.1667,66.72,54.0,0.0,4.25,IN,1635531369.0
443,kieta,-6.2167,155.6333,79.27,82.0,77.0,4.07,PG,1635531369.0
445,ternate,0.8,127.4,80.69,81.0,100.0,3.53,ID,1635531369.0
446,yulara,-25.2406,130.9889,73.24,18.0,75.0,14.97,AU,1635531299.0
447,shenzhen,22.5455,114.0683,78.28,91.0,58.0,7.18,CN,1635531069.0
448,kuandian,40.7286,124.7847,46.18,76.0,97.0,2.42,CN,1635531370.0
449,sioux lookout,50.1001,-91.917,46.47,76.0,40.0,4.61,CA,1635531370.0
451,santa maria,-29.6842,-53.8069,84.97,52.0,18.0,7.96,BR,1635531098.0
452,oistins,13.0667,-59.5333,82.02,68.0,8.0,12.88,BB,1635531276.0
453,nakamura,32.9833,132.9333,58.39,79.0,54.0,0.85,JP,1635531371.0
454,iqaluit,63.7506,-68.5145,36.7,84.0,100.0,11.01,CA,1635531193.0
455,fomboni,-12.28,43.7425,78.31,64.0,11.0,9.33,KM,1635531372.0
456,waw,7.7029,27.9953,82.85,43.0,90.0,4.21,SS,1635531372.0
458,yuzhno-kurilsk,44.0306,145.8556,48.13,86.0,100.0,24.07,RU,1635531372.0
459,tucuma,-0.1833,-50.05,84.72,65.0,85.0,6.02,BR,1635531373.0
460,krasnoselkup,65.7,82.4667,25.83,93.0,96.0,9.84,RU,1635531373.0
461,shimoda,34.6667,138.95,55.11,61.0,68.0,3.83,JP,1635531249.0
462,pitimbu,-7.4706,-34.8086,81.19,75.0,83.0,14.63,BR,1635531373.0
463,nishihara,26.1842,127.7558,70.88,68.0,0.0,4.61,JP,1635531317.0
464,sangar,63.9242,127.4739,6.06,96.0,100.0,5.19,RU,1635531374.0
465,cibitoke,-2.8833,29.25,66.65,72.0,88.0,4.85,BI,1635531374.0
466,mannheim,49.4883,8.4647,53.35,93.0,1.0,1.14,DE,1635531374.0
467,muswellbrook,-32.2667,150.9,53.33,61.0,0.0,1.72,AU,1635531375.0
468,bowen,-20.0167,148.2333,76.28,81.0,15.0,3.78,AU,1635531375.0
469,kijang,35.2442,129.2139,53.33,59.0,99.0,6.91,KR,1635531344.0
470,kuytun,54.3419,101.5036,27.03,57.0,84.0,5.79,RU,1635531375.0
471,monrovia,6.3005,-10.7969,76.77,83.0,99.0,7.85,LR,1635531376.0
473,corinth,37.9407,22.9573,61.9,60.0,40.0,1.01,GR,1635531376.0
474,saint george,37.1041,-113.5841,77.47,44.0,1.0,1.01,US,1635530932.0
475,kpandu,6.9954,0.2931,80.24,79.0,97.0,1.66,GH,1635531376.0
476,banda aceh,5.5577,95.3222,77.04,91.0,100.0,9.75,ID,1635531377.0
477,stornoway,58.2093,-6.3865,54.93,87.0,20.0,3.44,GB,1635531377.0
478,burgeo,47.6167,-57.6152,51.26,62.0,23.0,15.37,CA,1635531377.0
479,jiayuguan,39.8167,98.3,39.27,34.0,28.0,0.65,CN,1635531378.0
480,bhatgaon,21.15,81.7,75.38,73.0,38.0,4.61,IN,1635531378.0
481,kanakapura,12.55,77.4167,74.44,93.0,99.0,5.35,IN,1635531378.0
482,kavieng,-2.5744,150.7967,81.9,78.0,37.0,9.57,PG,1635531310.0
483,kanniyakumari,8.0833,77.5667,77.11,91.0,98.0,4.5,IN,1635531379.0
484,tall kayf,37.0833,41.0667,58.39,77.0,75.0,9.22,TR,1635531379.0
485,mocuba,-16.8392,36.9856,69.94,70.0,15.0,7.2,MZ,1635531379.0
486,grindavik,63.8424,-22.4338,43.27,87.0,75.0,14.97,IS,1635530957.0
487,caconda,-13.7333,15.0667,69.12,62.0,100.0,8.97,AO,1635531380.0
488,rudbar,30.15,62.6,66.27,27.0,8.0,2.62,AF,1635531190.0
489,novyy urengoy,66.0833,76.6333,21.81,95.0,100.0,13.56,RU,1635531380.0
490,ilulissat,69.2167,-51.1,23.02,80.0,40.0,2.3,GL,1635530928.0
491,sedro-woolley,48.5039,-122.2361,51.15,80.0,75.0,4.61,US,1635531381.0
492,luba,3.4568,8.5547,80.33,83.0,96.0,6.46,GQ,1635531381.0
493,nara,34.6851,135.8049,56.48,70.0,0.0,1.7,JP,1635531382.0
494,portland,45.5234,-122.6762,54.52,92.0,75.0,1.01,US,1635531204.0
495,ingham,42.6,-84.3833,57.0,97.0,90.0,6.91,US,1635531382.0
496,barcelos,41.5388,-8.6151,57.85,94.0,100.0,11.79,PT,1635531150.0
497,adrar,20.5022,-10.0711,84.04,24.0,28.0,9.01,MR,1635531198.0
499,barra patuca,15.8,-84.2833,85.95,67.0,100.0,7.99,HN,1635531383.0
500,saint-joseph,-21.3667,55.6167,70.18,79.0,65.0,9.13,RE,1635531283.0
501,olinda,-8.0089,-34.8553,83.93,61.0,75.0,14.97,BR,1635531226.0
502,colac,-38.3333,143.5833,42.84,85.0,16.0,5.21,AU,1635531383.0
503,palmer,42.1584,-72.3287,54.03,60.0,75.0,3.0,US,1635531228.0
504,payo,-3.7508,103.6372,74.61,93.0,98.0,1.66,ID,1635531384.0
505,sol-iletsk,51.1631,54.9918,39.06,80.0,65.0,3.47,RU,1635531384.0
506,lapy,52.9911,22.8842,52.48,72.0,33.0,10.45,PL,1635531384.0
507,el seibo,18.7641,-69.0375,90.52,51.0,1.0,8.95,DO,1635531385.0
508,nuuk,64.1835,-51.7216,34.41,93.0,75.0,12.66,GL,1635531229.0
509,teknaf,20.8624,92.3058,77.68,83.0,52.0,6.69,BD,1635531323.0
510,vicuna,-30.0319,-70.7081,89.76,21.0,45.0,8.99,CL,1635531385.0
511,ara,25.5667,84.6667,66.09,53.0,5.0,5.12,IN,1635531386.0
512,kupino,54.3663,77.2981,36.97,87.0,100.0,17.05,RU,1635531386.0
513,kopavogur,64.1123,-21.913,46.11,66.0,40.0,10.36,IS,1635531386.0
514,coahuayana,18.7333,-103.6833,85.48,62.0,18.0,4.97,MX,1635531387.0
515,port hueneme,34.1478,-119.1951,89.74,51.0,1.0,0.0,US,1635531387.0
516,sorong,-0.8833,131.25,77.95,89.0,100.0,6.98,ID,1635531387.0
517,buraydah,26.326,43.975,78.93,17.0,3.0,14.83,SA,1635531226.0
518,qasigiannguit,68.8193,-51.1922,23.25,94.0,96.0,5.3,GL,1635531388.0
519,ancud,-41.8697,-73.8203,54.93,89.0,76.0,11.14,CL,1635531165.0
520,hadrut,39.52,47.0318,47.46,71.0,92.0,3.98,AZ,1635531388.0
521,badou,7.5833,0.6,77.99,82.0,95.0,3.56,TG,1635531388.0
522,meadow lake,34.8014,-106.5436,68.49,31.0,0.0,5.32,US,1635531389.0
523,port hedland,-20.3167,118.5667,75.25,69.0,99.0,10.36,AU,1635531312.0
524,joacaba,-27.1781,-51.5047,82.54,48.0,37.0,5.68,BR,1635531153.0
525,santo tomas,14.1079,121.1414,79.05,89.0,20.0,6.69,PH,1635531389.0
526,gweta,-20.1833,25.2333,86.67,28.0,5.0,7.29,BW,1635531389.0
527,corn island,12.1694,-83.0418,82.11,74.0,49.0,4.92,NI,1635531390.0
528,mata,40.683,-7.4592,58.93,95.0,100.0,6.02,PT,1635531390.0
529,puerto narino,-3.7703,-70.3831,86.4,68.0,92.0,1.36,CO,1635531390.0
530,byron bay,-28.65,153.6167,73.06,82.0,100.0,3.98,AU,1635531235.0
531,urbano santos,-3.2078,-43.4036,84.69,61.0,89.0,3.04,BR,1635531391.0
532,rio gallegos,-51.6226,-69.2181,51.85,30.0,75.0,28.77,AR,1635531391.0
533,surt,31.2089,16.5887,72.7,54.0,0.0,4.03,LY,1635531391.0
534,topeka,39.0483,-95.678,60.24,67.0,75.0,14.97,US,1635531135.0
535,novosergiyevka,52.0934,53.6528,39.85,89.0,100.0,3.18,RU,1635531392.0
536,kaka,37.3482,59.6143,54.79,45.0,3.0,6.51,TM,1635531392.0
537,mahanoro,-19.9,48.8,69.42,81.0,100.0,7.05,MG,1635531392.0
538,the pas,53.8251,-101.2541,41.02,65.0,90.0,5.75,CA,1635531331.0
539,katsuura,35.1333,140.3,53.71,69.0,1.0,9.35,JP,1635530955.0
540,wilmington,34.2257,-77.9447,73.98,56.0,20.0,19.57,US,1635531309.0
541,broken hill,-31.95,141.4333,49.42,52.0,0.0,16.15,AU,1635531193.0
542,namatanai,-3.6667,152.4333,79.95,77.0,42.0,7.85,PG,1635531393.0
543,augusto correa,-1.0217,-46.635,81.48,83.0,86.0,3.65,BR,1635531393.0
544,ostrovnoy,68.0531,39.5131,36.07,98.0,100.0,9.73,RU,1635531246.0
545,virginia beach,36.8529,-75.978,78.84,85.0,75.0,11.5,US,1635531394.0
546,nyurba,63.2842,118.3319,8.37,91.0,26.0,5.19,RU,1635531178.0
547,toora-khem,52.4675,96.11,27.48,78.0,65.0,1.95,RU,1635531394.0
548,maniitsoq,65.4167,-52.9,31.84,88.0,100.0,9.53,GL,1635531317.0
549,lompoc,34.6391,-120.4579,87.57,49.0,1.0,6.91,US,1635531094.0
550,eureka,40.8021,-124.1637,64.2,93.0,99.0,1.99,US,1635531394.0
551,ambilobe,-13.2,49.05,75.9,80.0,25.0,0.94,MG,1635531260.0
552,cape canaveral,28.4058,-80.6048,83.07,54.0,40.0,12.66,US,1635531395.0
553,samarai,-10.6167,150.6667,81.57,82.0,80.0,9.71,PG,1635531278.0
554,wildwood,38.5828,-90.6629,54.55,93.0,90.0,1.01,US,1635531395.0
555,phibun mangsahan,15.2447,105.2291,76.98,98.0,100.0,7.23,TH,1635531396.0
557,marsh harbour,26.5412,-77.0636,80.91,80.0,100.0,21.83,BS,1635531396.0
558,tautira,-17.7333,-149.15,78.82,76.0,55.0,14.9,PF,1635531396.0
559,pasni,25.2631,63.471,79.61,65.0,0.0,9.33,PK,1635531397.0
560,williams lake,52.1415,-122.1445,32.22,75.0,97.0,3.0,CA,1635531227.0
561,oga,46.4631,10.347,43.34,75.0,62.0,5.93,IT,1635531397.0
562,puri,19.8,85.85,81.12,75.0,95.0,8.01,IN,1635531308.0
563,thunder bay,48.4001,-89.3168,51.3,83.0,90.0,6.91,CA,1635531370.0
564,vaitape,-16.5167,-151.75,78.85,74.0,99.0,16.87,PF,1635531397.0
565,metro,-5.1131,105.3067,75.99,89.0,82.0,5.03,ID,1635531398.0
566,kuybysheve,47.358,36.6491,46.51,66.0,2.0,7.11,UA,1635531398.0
567,arandis,-22.4167,14.9667,54.46,32.0,0.0,4.63,NA,1635531398.0
568,yerofey pavlovich,53.9667,121.9667,21.31,50.0,2.0,2.84,RU,1635531399.0
569,jalu,29.0331,21.5482,76.42,44.0,100.0,10.0,LY,1635531399.0
570,nouadhibou,20.931,-17.0347,75.18,57.0,45.0,12.66,MR,1635531399.0
571,suraabad,40.8192,49.4687,55.58,78.0,100.0,7.14,AZ,1635531399.0
572,naica,27.85,-105.4833,71.17,15.0,0.0,5.68,MX,1635531400.0
574,matay,28.419,30.7792,79.32,37.0,88.0,6.55,EG,1635531400.0
575,sao filipe,14.8961,-24.4956,79.77,74.0,100.0,10.18,CV,1635530905.0
576,shafranovo,53.9667,54.7667,25.52,56.0,14.0,1.25,RU,1635531401.0
577,diu,20.7141,70.9822,77.31,40.0,100.0,11.48,IN,1635531401.0
578,takoradi,4.8845,-1.7554,80.15,81.0,76.0,10.0,GH,1635531250.0
579,gagino,55.2314,45.0339,41.04,82.0,100.0,14.54,RU,1635531401.0
580,douglas,41.3,-96.167,57.07,66.0,1.0,4.0,US,1635531312.0
581,huarmey,-10.0681,-78.1522,71.01,70.0,88.0,12.62,PE,1635531316.0
582,lodwar,3.1191,35.5973,88.9,34.0,49.0,18.59,KE,1635531402.0
583,caluquembe,-13.7833,14.6833,65.03,77.0,99.0,7.65,AO,1635531402.0
584,port pirie,-33.1833,138.0167,53.69,79.0,1.0,6.06,AU,1635531403.0
585,chapais,49.7834,-74.8492,51.04,38.0,0.0,7.05,CA,1635531261.0
586,saint-augustin,51.226,-58.6502,52.05,28.0,0.0,0.38,CA,1635531292.0
587,praia da vitoria,38.7333,-27.0667,70.75,92.0,98.0,9.73,PT,1635531273.0
588,chimoio,-19.1164,33.4833,66.54,53.0,19.0,7.36,MZ,1635531264.0
589,lewistown,40.5992,-77.5714,52.48,95.0,90.0,12.66,US,1635531403.0
590,asau,46.4333,26.4,45.95,80.0,8.0,1.21,RO,1635531246.0
591,nizhneudinsk,54.9076,99.0276,34.32,57.0,99.0,4.12,RU,1635531404.0
592,ponta delgada,37.7333,-25.6667,73.51,94.0,75.0,17.27,PT,1635531394.0
593,ada,43.4166,-116.1262,63.81,53.0,1.0,15.99,US,1635531404.0
594,paamiut,61.994,-49.6678,33.78,96.0,100.0,6.15,GL,1635531306.0
595,kokologo,12.1897,-1.8856,91.26,31.0,81.0,7.09,BF,1635531405.0
596,tharad,24.3961,71.6267,77.45,26.0,11.0,5.99,IN,1635531405.0
597,ushtobe,45.2514,77.9838,46.96,77.0,100.0,6.78,KZ,1635531405.0
598,talhar,24.8833,68.8167,77.5,26.0,2.0,6.93,PK,1635531406.0
599,oranjemund,-28.55,16.4333,61.7,83.0,0.0,9.53,NA,1635531406.0
600,amazar,53.858,120.875,22.8,61.0,2.0,2.51,RU,1635531406.0
601,ocos,14.5094,-92.1933,91.9,72.0,42.0,5.48,GT,1635531407.0
602,agua verde,22.9,-106.05,87.89,75.0,3.0,3.4,MX,1635531407.0
603,jatiroto,-7.8833,111.1167,76.33,91.0,96.0,2.13,ID,1635531408.0
605,fontem,5.4685,9.8818,68.16,91.0,97.0,4.74,CM,1635531408.0
606,hervey bay,-25.2986,152.8535,77.04,85.0,100.0,13.6,AU,1635531408.0
607,kargil,34.5667,76.1,30.38,56.0,39.0,4.34,IN,1635531409.0
608,mao,39.8885,4.2658,66.76,72.0,20.0,9.22,ES,1635531300.0
609,broome,42.2506,-75.833,56.98,57.0,75.0,3.0,US,1635531268.0
